[{"name": "alcantara metro station", "lat": -33.41533888888889, "lon": -70.58952777777777}, {"name": "baquedano metro station", "lat": -33.4375, "lon": -70.635}, {"name": "barrancas metro station", "lat": -33.45291111111111, "lon": -70.73941111111111}, {"name": "bellas artes metro station", "lat": -33.43657777777778, "lon": -70.64441111111111}, {"name": "bellavista de la florida metro station", "lat": -33.520475, "lon": -70.59939444444444}, {"name": "bio bio metro station", "lat": -33.47672222222222, "lon": -70.64219444444446}, {"name": "blanqueado metro station", "lat": -33.44111944444444, "lon": -70.70682777777778}, {"name": "camino agricola metro station", "lat": -33.49189166666667, "lon": -70.61752777777777}, {"name": "cardenal caro metro station", "lat": -33.38527777777778, "lon": -70.67944444444444}, {"name": "carlos valdovinos metro station", "lat": -33.48653888888889, "lon": -70.61913055555554}, {"name": "cementerios metro station", "lat": -33.41403611111111, "lon": -70.64358611111112}, {"name": "cerrillos metro station", "lat": -33.483333333333334, "lon": -70.69472222222223}, {"name": "cerro blanco metro station", "lat": -33.422016666666664, "lon": -70.64484166666668}, {"name": "chile espana metro station", "lat": -33.45444444444445, "lon": -70.58}, {"name": "ciudad del nino metro station", "lat": -33.50953333333333, "lon": -70.65663888888889}, {"name": "conchali metro station", "lat": -33.3975, "lon": -70.66972222222223}, {"name": "cristobal colon metro station", "lat": -33.42635277777777, "lon": -70.5911}, {"name": "cumming metro station", "lat": -33.439074999999995, "lon": -70.66863888888889}, {"name": "del sol metro station", "lat": -33.48999166666667, "lon": -70.75295555555556}, {"name": "departamental metro station", "lat": -33.502405555555555, "lon": -70.6546}, {"name": "dorsal metro station", "lat": -33.39700833333333, "lon": -70.64273611111112}, {"name": "ecuador metro station", "lat": -33.45583333333334, "lon": -70.69944444444445}, {"name": "einstein metro station", "lat": -33.405744444444444, "lon": -70.64314722222223}, {"name": "el golf metro station", "lat": -33.41653888888889, "lon": -70.59542222222221}, {"name": "el llano metro station", "lat": -33.48269444444445, "lon": -70.64975000000001}, {"name": "el parron metro station", "lat": -33.526469444444444, "lon": -70.66158333333334}, {"name": "elisa correa metro station", "lat": -33.56944444444445, "lon": -70.58388888888888}, {"name": "escuela militar metro station", "lat": -33.41426666666666, "lon": -70.58465}, {"name": "estacion central metro station", "lat": -33.450833333333335, "lon": -70.67888888888889}, {"name": "estadio nacional metro station", "lat": -33.462833333333336, "lon": -70.60672222222222}, {"name": "fernando castillo velasco metro station", "lat": -33.4525, "lon": -70.55805555555555}, {"name": "francisco bilbao metro station", "lat": -33.43181111111111, "lon": -70.58476388888889}, {"name": "franklin metro station", "lat": -33.47582222222223, "lon": -70.64939166666667}, {"name": "grecia metro station", "lat": -33.46915833333333, "lon": -70.57648055555555}, {"name": "gruta de lourdes metro station", "lat": -33.438266666666664, "lon": -70.69095277777778}, {"name": "hernando de magallanes metro station", "lat": -33.40821666666667, "lon": -70.55611111111111}, {"name": "hospital sotero del rio metro station", "lat": -33.57694444444445, "lon": -70.58222222222221}, {"name": "hospitales metro station", "lat": -33.418055555555554, "lon": -70.65583333333333}, {"name": "ines de suarez metro station", "lat": -33.43844444444444, "lon": -70.60672222222222}, {"name": "irarrazaval metro station", "lat": -33.45240555555556, "lon": -70.62898888888888}, {"name": "la cisterna metro station", "lat": -33.53737777777778, "lon": -70.66439722222223}, {"name": "la granja metro station", "lat": -33.54111111111111, "lon": -70.61611111111111}, {"name": "la moneda metro station", "lat": -33.445027777777774, "lon": -70.65566666666668}, {"name": "laguna sur metro station", "lat": -33.46235277777778, "lon": -70.73791944444444}, {"name": "las mercedes metro station", "lat": -33.601575000000004, "lon": -70.57745}, {"name": "las parcelas metro station", "lat": -33.475230555555555, "lon": -70.73996666666667}, {"name": "las rejas metro station", "lat": -33.45722222222223, "lon": -70.70555555555556}, {"name": "las torres metro station", "lat": -33.498850000000004, "lon": -70.58633611111111}, {"name": "lo ovalle metro station", "lat": -33.51765555555556, "lon": -70.66092222222223}, {"name": "lo prado metro station", "lat": -33.44316111111111, "lon": -70.71682777777778}, {"name": "lo valledor metro station", "lat": -33.47833333333333, "lon": -70.68083333333334}, {"name": "lo vial metro station", "lat": -33.49690277777778, "lon": -70.65300555555557}, {"name": "los dominicos metro station", "lat": -33.407777777777774, "lon": -70.545}, {"name": "los heroes metro station", "lat": -33.44616944444444, "lon": -70.66044166666667}, {"name": "los leones metro station", "lat": -33.42166666666667, "lon": -70.60972222222222}, {"name": "los libertadores metro station", "lat": -33.36555555555556, "lon": -70.69055555555556}, {"name": "los orientales metro station", "lat": -33.46237222222223, "lon": -70.57374999999999}, {"name": "los presidentes metro station", "lat": -33.4771, "lon": -70.57866944444444}, {"name": "los quillayes metro station", "lat": -33.561388888888885, "lon": -70.58527777777778}, {"name": "macul metro station", "lat": -33.509258333333335, "lon": -70.59007222222222}, {"name": "manquehue metro station", "lat": -33.40878333333333, "lon": -70.56718333333333}, {"name": "manuel montt metro station", "lat": -33.42856944444444, "lon": -70.6198111111111}, {"name": "matta metro station", "lat": -33.45805555555556, "lon": -70.64305555555556}, {"name": "mirador metro station", "lat": -33.513416666666664, "lon": -70.605925}, {"name": "monsenor eyzaguirre metro station", "lat": -33.45444444444445, "lon": -70.58}, {"name": "monte tabor metro station", "lat": -33.48224166666667, "lon": -70.74543888888888}, {"name": "neptuno metro station", "lat": -33.45150833333334, "lon": -70.72267777777778}, {"name": "nuble metro station", "lat": -33.46736666666667, "lon": -70.62477777777777}, {"name": "nunoa metro station", "lat": -33.45433333333334, "lon": -70.60516666666666}, {"name": "pajaritos metro station", "lat": -33.457394444444446, "lon": -70.71597777777778}, {"name": "parque almagro metro station", "lat": -33.45166666666667, "lon": -70.65083333333334}, {"name": "parque bustamante metro station", "lat": -33.44277222222222, "lon": -70.63149999999999}, {"name": "parque o'higgins metro station", "lat": -33.461647222222226, "lon": -70.65677222222223}, {"name": "patronato metro station", "lat": -33.429602777777774, "lon": -70.647125}, {"name": "pedrero metro station", "lat": -33.50805277777778, "lon": -70.61236944444444}, {"name": "pedro de valdivia metro station", "lat": -33.425419444444444, "lon": -70.61448333333333}, {"name": "plaza chacabuco metro station", "lat": -33.406388888888884, "lon": -70.66111111111111}, {"name": "plaza de armas metro station", "lat": -33.43773333333333, "lon": -70.65045555555557}, {"name": "plaza de maipu metro station", "lat": -33.510019444444445, "lon": -70.756975}, {"name": "plaza de puente alto metro station", "lat": -33.61511388888889, "lon": -70.57582777777777}, {"name": "plaza egana metro station", "lat": -33.453411111111116, "lon": -70.57075277777777}, {"name": "presidente pedro aguirre cerda metro station", "lat": -33.478388888888894, "lon": -70.66505555555555}, {"name": "principe de gales metro station", "lat": -33.43913611111111, "lon": -70.5731111111111}, {"name": "protectora de la infancia metro station", "lat": -33.58971666666667, "lon": -70.57987222222222}, {"name": "pudahuel metro station", "lat": -33.444941666666665, "lon": -70.74105277777778}, {"name": "puente cal y canto metro station", "lat": -33.43309166666666, "lon": -70.65182777777778}, {"name": "quilin metro station", "lat": -33.487922222222224, "lon": -70.58033333333333}, {"name": "quinta normal metro station", "lat": -33.44039444444444, "lon": -70.68031111111111}, {"name": "republica metro station", "lat": -33.44777777777777, "lon": -70.6675}, {"name": "rodrigo de araya metro station", "lat": -33.47762222222222, "lon": -70.62229166666665}, {"name": "rojas magallanes metro station", "lat": -33.53627777777778, "lon": -70.592675}, {"name": "rondizzoni metro station", "lat": -33.46966388888889, "lon": -70.65633611111112}, {"name": "salvador metro station", "lat": -33.432655555555556, "lon": -70.6260861111111}, {"name": "san alberto hurtado metro station", "lat": -33.45416666666667, "lon": -70.69222222222223}, {"name": "san joaquin metro station", "lat": -33.49922222222222, "lon": -70.61597222222221}, {"name": "san jose de la estrella metro station", "lat": -33.55359722222222, "lon": -70.58655833333333}, {"name": "san miguel metro station", "lat": -33.48880277777778, "lon": -70.65108333333333}, {"name": "san pablo metro station", "lat": -33.44530833333333, "lon": -70.7231388888889}, {"name": "san ramon metro station", "lat": -33.54116944444444, "lon": -70.64327222222222}, {"name": "santa ana metro station", "lat": -33.43805555555555, "lon": -70.66000000000001}, {"name": "santa isabel metro station", "lat": -33.447075, "lon": -70.63045}, {"name": "santa julia metro station", "lat": -33.531191666666665, "lon": -70.60560277777778}, {"name": "santa lucia metro station", "lat": -33.442611111111106, "lon": -70.64511111111112}, {"name": "santa rosa metro station", "lat": -33.54239166666667, "lon": -70.63419722222223}, {"name": "santiago bueras metro station", "lat": -33.496975, "lon": -70.75709166666667}, {"name": "simon bolivar metro station", "lat": -33.44588611111111, "lon": -70.57202777777778}, {"name": "tobalaba metro station", "lat": -33.418055555555554, "lon": -70.60166666666666}, {"name": "toesca metro station", "lat": -33.45291111111111, "lon": -70.65858055555556}, {"name": "trinidad metro station", "lat": -33.54598611111111, "lon": -70.58828055555556}, {"name": "union latinoamericana metro station", "lat": -33.44972222222222, "lon": -70.67416666666666}, {"name": "universidad catolica metro station", "lat": -33.44022222222222, "lon": -70.64038611111111}, {"name": "universidad de chile metro station", "lat": -33.443749999999994, "lon": -70.65034444444446}, {"name": "universidad de santiago metro station", "lat": -33.45277777777778, "lon": -70.68611111111112}, {"name": "vespucio norte metro station", "lat": -33.38116111111111, "lon": -70.64452777777778}, {"name": "vicente valdes metro station", "lat": -33.526513888888886, "lon": -70.59676388888889}, {"name": "vicuna mackenna metro station", "lat": -33.519675, "lon": -70.59616666666666}, {"name": "villa frei metro station", "lat": -33.45444444444445, "lon": -70.58}, {"name": "vivaceta metro station", "lat": -33.38527777777778, "lon": -70.67944444444444}, {"name": "zapadores metro station", "lat": -33.39089166666667, "lon": -70.64246944444444}]